# /lateral_thrust/recceipt_time, /lateral_thrust/data, /thrust/recceipt_time, /thrust/data, /vertical_thrust/recceipt_time, /vertical_thrust/data, /number_tags/recceipt_time, /number_tags/data, /ring_pos/recceipt_time, /ring_pos/position/x, /ring_pos/recceipt_time, /ring_pos/position/y, /ring_pos/recceipt_time, /ring_pos/position/z, /ground_truth/state/recceipt_time, /ground_truth/state/pose/pose/position/x, /ground_truth/state/recceipt_time, /ground_truth/state/pose/pose/position/y, /ground_truth/state/recceipt_time, /ground_truth/state/pose/pose/position/z, /nav_controller/angle/recceipt_time, /nav_controller/angle/z, /nav_controller/angle/recceipt_time, /nav_controller/angle/y, /nav_controller/angle/recceipt_time, /nav_controller/angle/x, /yaw/recceipt_time, /yaw/data, /roll/recceipt_time, /roll/data, /pitch/recceipt_time, /pitch/data
1612188245.4158155918, -0.11985253519814842438, 1612188245.4173240662, 0.23692605329632196454, 1612188245.4173505306, -0.00047601714103165382319, 1612188245.4270281792, 4, 1612188245.4278011322, -0.49938575523545114532, 1612188245.4278011322, 1.187232626543137215, 1612188245.4278011322, 0.12354661129048474799, 1612188245.4314055443, 0.50000000005178746321, 1612188245.4314055443, 1.0000000167252318661, 1612188245.4314055443, -0.58263596669067629907, 1612188245.4322218895, 1.5677000003787535665, 1612188245.4322218895, -0.011828631881831079553, 1612188245.4322218895, -1.0897328203782021693e-10, , , , , , 
1612188245.941182375, -0.11985243313774729401, 1612188245.9408340454, 0.23687991455379844852, 1612188245.9408156872, 0.0025159181952543394067, 1612188245.7598075867, 4, 1612188245.7603185177, -0.49938562402499980797, 1612188245.7603185177, 1.1871759223796440885, 1612188245.7603185177, 0.11922926133318953457, 1612188245.4912011623, 0.50000000004719480362, 1612188245.4912011623, 1.0000000152421602007, 1612188245.4912011623, -0.58365827057644004139, 1612188245.4915831089, 1.5677000003805328099, 1612188245.4915831089, -0.011699579140927725968, 1612188245.4915831089, -1.0658586701804312508e-10, , , , , , 
1612188246.3410139084, -0.11985245953892581516, 1612188246.3406825066, 0.23689195744826985202, 1612188246.3408930302, 0.0042631766510628013589, 1612188246.0818226337, 4, 1612188246.0849609375, -0.49938546994080729169, 1612188246.0849609375, 1.1871122614780234006, 1612188246.0849609375, 0.1148593371972521926, 1612188245.5533256531, 0.50000000004261913045, 1612188245.5533256531, 1.0000000137646265497, 1612188245.5533256531, -0.58468254709873523911, 1612188245.553630352, 1.567700000382295844, 1612188245.553630352, -0.011567681878584833155, 1612188245.553630352, -1.0420791156199248965e-10, , , , , , 
1612188246.7710821629, -0.11985230441323646566, 1612188246.7710597515, 0.23682980107755269295, 1612188246.7710926533, 0.0073935754022830188492, 1612188246.3924136162, 4, 1612188246.3964731693, -0.49938529700898687258, 1612188246.3964731693, 1.1870429702409106554, 1612188246.3964731693, 0.11044262467298562869, 1612188245.6976041794, 0.50000000003806532867, 1612188245.6976041794, 1.0000000122941390401, 1612188245.6976041794, -0.58570875585000614638, 1612188245.6976296902, 1.5677000003840422249, 1612188245.6976296902, -0.011433121414053700263, 1612188245.6976296902, -1.018421536404041377e-10, , , , , , 
1612188247.4047291279, -0.11985235257420577548, 1612188247.4037983418, 0.23684847887609417061, 1612188247.4043159485, 0.0092242333777603768841, 1612188246.7294998169, 4, 1612188246.7295160294, -0.49938510953064868536, 1612188246.7295160294, 1.1869694347882309149, 1612188246.7295160294, 0.10598475990283429127, 1612188245.7562844753, 0.50000000003353783917, 1612188245.7562844753, 1.0000000108321849268, 1612188245.7562844753, -0.58673685725049606887, 1612188245.7563285828, 1.5677000003857728405, 1612188245.7563285828, -0.011296080524196365144, 1612188245.7563285828, -9.9491293003644907112e-11, , , , , , 
1612188247.8290829659, -0.11985231190524986422, 1612188247.828291893, 0.2368318286827526542, 1612188247.8283083439, 0.011300623086983242749, 1612188247.1736102104, 4, 1612188247.1739878654, -0.49938491190400940978, 1612188247.1739878654, 1.1868930693439545543, 1612188247.1739878654, 0.10149119438944861904, 1612188245.8187043667, 0.50000000002904143592, 1612188245.8187043667, 1.0000000093802314804, 1612188245.8187043667, -0.5877668125312858205, 1612188245.8189413548, 1.5677000003874883571, 1612188245.8189413548, -0.011156743215140743977, 1612188245.8189413548, -9.7158000723591917884e-11, , , , , , 
1612188248.2308373451, -0.11985213762586201247, 1612188248.2299940586, 0.23676486008012587181, 1612188248.2300214767, 0.014557665797012182829, 1612188247.5107433796, 4, 1612188247.5172045231, -0.49938470857324873675, 1612188247.5172045231, 1.1868152855241473898, 1612188247.5172045231, 0.096967158724667823488, 1612188245.9609720707, 0.50000000002458055981, 1612188245.9609720707, 1.000000007939722213, 1612188245.9609720707, -0.58879858371767923586, 1612188245.9612500668, 1.5677000003891885527, 1612188245.9612500668, -0.01101529449459772575, 1612188245.9612500668, -9.4844891436923770755e-11, , , , , , 
1612188248.7502789497, -0.1198521976489221319, 1612188248.7499785423, 0.23678680319397163445, 1612188248.7539830208, 0.016465873680839022974, 1612188247.8388221264, 4, 1612188247.8417136669, -0.49938450392493966001, 1612188247.8417136669, 1.1867374632318288263, 1612188247.8417136669, 0.092417626355948911954, 1612188246.0180196762, 0.50000000002015965173, 1612188246.0180196762, 1.0000000065120777659, 1612188246.0180196762, -0.58983213361292885502, 1612188246.018039465, 1.567700000390872539, 1612188246.018039465, -0.01087192014510184393, 1612188246.018039465, -9.2554528550667145195e-11, , , , , , 
1612188249.2803721428, -0.11985204587775817597, 1612188249.2790548801, 0.23672774756169961963, 1612188249.2790763378, 0.019779784766931658713, 1612188248.1526589394, 4, 1612188248.1565737724, -0.49938430218522106285, 1612188248.1565737724, 1.1866609236761316293, 1612188248.1565737724, 0.087847278729583644363, 1612188246.0699114799, 0.5000000000157828195, 1612188246.0699114799, 1.0000000050986919131, 1612188246.0699114799, -0.5908674257822958964, 1612188246.0712790489, 1.5677000003925416483, 1612188246.0712790489, -0.010726806498433537687, 1612188246.0712790489, -9.0289440724324974019e-11, , , , , , 
1612188250.1293330193, -0.11985210154010447758, 1612188250.1292951107, 0.23674797977892445, 1612188250.1293201447, 0.021724050794230669037, 1612188248.4820239544, 4, 1612188248.4828686714, -0.49938410734021915216, 1612188248.4828686714, 1.1865869049828914328, 1612188248.4828686714, 0.083260472688330366964, 1612188246.2201871872, 0.50000000001145417095, 1612188246.2201871872, 1.0000000037009313392, 1612188246.2201871872, -0.59190442453743641327, 1612188246.2207496166, 1.5677000003941956585, 1612188246.2207496166, -0.010580140211477470982, 1612188246.2207496166, -8.8052098451233375075e-11, , , , , , 
1612188250.6625480652, -0.11985206838072680335, 1612188250.6619992256, 0.23673412182422809424, 1612188250.6620166302, 0.023907139486083795604, 1612188248.8946111202, 4, 1612188248.8989007473, -0.4993839230858508893, 1612188248.8989007473, 1.1865165407412083809, 1612188248.8989007473, 0.07866121133780221153, 1612188246.2772805691, 0.50000000000717825799, 1612188246.2772805691, 1.0000000023201329746, 1612188246.2772805691, -0.59294309492110619519, 1612188246.2773241997, 1.5677000003958350138, 1612188246.2773241997, -0.010432108043767025427, 1612188246.2773241997, -8.5844913193003593508e-11, , , , , , 
1612188251.162876606, -0.11985198138751920749, 1612188251.1626601219, 0.23669619386998996813, 1612188251.1627209187, 0.027257140402922593742, 1612188249.1340987682, 4, 1612188249.1394410133, -0.49938375272209861722, 1612188249.1394410133, 1.1864508417802366314, 1612188249.1394410133, 0.074053119070130568602, 1612188246.3228898048, 0.50000000000295885538, 1612188246.3228898048, 1.0000000009576051063, 1612188246.3228898048, -0.59398340269218052878, 1612188246.3235974312, 1.5677000003974597142, 1612188246.3235974312, -0.010282896636961113765, 1612188246.3235974312, -8.3670247790478661208e-11, , , , , , 
1612188251.8917782307, -0.11985201754031170329, 1612188251.8904578686, 0.23670999016218430278, 1612188251.8911771774, 0.029226199701800195663, 1612188249.6822733879, 4, 1612188249.682311058, -0.49938359913948304758, 1612188249.682311058, 1.1863906812891322762, 1612188249.682311058, 0.069439421607886825383, 1612188246.3666677475, 0.49999999999880001544, 1612188246.3666677475, 0.99999999961462360254, 1612188246.3666677475, -0.59502531431097938075, 1612188246.3671970367, 1.5677000003990693155, 1612188246.3671970367, -0.010132692296494690345, 1612188246.3671970367, -8.1530395648151331243e-11, , , , , , 
1612188252.7298583984, -0.11985199084233583156, 1612188252.7294778824, 0.23669128266132283267, 1612188252.7294929028, 0.03258266682796692737, 1612188250.3435676098, 4, 1612188250.3456432819, -0.49938346476440148569, 1612188250.3456432819, 1.1863367834098004217, 1612188250.3456432819, 0.064822931560903962467, 1612188246.4329884052, 0.49999999999470567946, 1612188246.4329884052, 0.99999999829243202409, 1612188246.4329884052, -0.59606879692489656009, 1612188246.4334526062, 1.5677000004006655942, 1612188246.4334526062, -0.0099816807756396581236, 1612188246.4334526062, -7.9427601554368402841e-11, , , , , , 
1612188253.3262271881, -0.11985200677147600512, 1612188253.326215744, 0.23669862917167533434, 1612188253.3261871338, 0.034557946644324183394, 1612188250.6693639755, 4, 1612188250.6693818569, -0.49938335150228002624, 1612188250.6693818569, 1.1862897153093536762, 1612188250.6693818569, 0.060206039917326564792, 1612188246.4765491486, 0.49999999999067928913, 1612188246.4765491486, 0.99999999699223884875, 1612188246.4765491486, -0.59711381835431842635, 1612188246.4769220352, 1.5677000004022463298, 1612188246.4769220352, -0.0098300470622078531951, 1612188246.4769220352, -7.7364028722450929803e-11, , , , , , 
1612188253.9351174831, -0.11985200578542312688, 1612188253.9346969128, 0.2366951118093143791, 1612188253.9347221851, 0.03676390909046713118, 1612188251.0823392868, 4, 1612188251.0842564106, -0.49938326078264394514, 1612188251.0842564106, 1.1862498826340994729, 1612188251.0842564106, 0.05559071369519200112, 1612188246.5325109959, 0.49999999998672467472, 1612188246.5325109959, 0.99999999571521847042, 1612188246.5325109959, -0.59816034707883447563, 1612188246.5332875252, 1.5677000004038139647, 1612188246.5332875252, -0.0096779751681225576615, 1612188246.5332875252, -7.5341796959210940646e-11, , , , , , 
1612188254.3647119999, -0.11985205326874054377, 1612188254.3641738892, 0.23669974305032365214, 1612188254.3646843433, 0.040115507862302363096, 1612188251.5065536499, 4, 1612188251.5141632557, -0.49938319348032911282, 1612188251.5141632557, 1.1862175283153042482, 1612188251.5141632557, 0.050978499909554969571, 1612188246.5912592411, 0.49999999998284538894, 1612188246.5912592411, 0.99999999446250775748, 1612188246.5912592411, -0.59920835222373036721, 1612188246.5917747021, 1.5677000004053678328, 1612188246.5917747021, -0.0095256479220794266355, 1612188246.5917747021, -7.3362942767110689782e-11, , , , , , 
1612188254.7888739109, -0.11985204244419107866, 1612188254.7885591984, 0.23669867859796081544, 1612188254.7891833782, 0.042090363310044856537, 1612188252.0908987522, 4, 1612188252.0951199532, -0.49938314997148153251, 1612188252.0951199532, 1.1861927344872842394, 1612188252.0951199532, 0.046370535671753587703, 1612188246.7503020763, 0.49999999997904476245, 1612188246.7503020763, 0.99999999323520705197, 1612188246.7503020763, -0.60025780354675573047, 1612188246.7509701252, 1.567700000406907046, 1612188246.7509701252, -0.0093732467655122247985, 1612188246.7509701252, -7.1429434093020016184e-11, , , , , , 
1612188255.6687297821, -0.11985212898340288912, 1612188255.6681981087, 0.23671539885630285549, 1612188255.6686732769, 0.045436599304041036529, 1612188252.6977651119, 4, 1612188252.7012593746, -0.49938313011320589752, 1612188252.7012593746, 1.1861754273991045316, 1612188252.7012593746, 0.041767564296284614977, 1612188246.8156235218, 0.49999999997532612594, 1612188246.8156235218, 0.99999999203437817119, 1612188246.8156235218, -0.60130867142516519763, 1612188246.816044569, 1.5677000004084324924, 1612188246.816044569, -0.0092209515520727050597, 1612188246.816044569, -6.9543174668091986397e-11, , , , , , 
1612188256.1966936588, -0.11985210270689547474, 1612188256.1920492649, 0.23670953468298361333, 1612188256.1967182159, 0.047409353172332538429, 1612188253.1159279346, 4, 1612188253.118021965, -0.49938313328780065126, 1612188253.118021965, 1.1861653850478754979, 1612188253.118021965, 0.037169956906812434694, 1612188246.878639698, 0.49999999997169264354, 1612188246.878639698, 0.99999999086104296442, 1612188246.878639698, -0.60236092684302300349, 1612188246.8790202141, 1.5677000004099448383, 1612188246.8790202141, -0.0090689403508280794219, 1612188246.8790202141, -6.7705990132266131449e-11, , , , , , 
1612188256.8029541969, -0.11985212593042043894, 1612188256.8029243946, 0.23671356655097874899, 1612188256.8029444218, 0.049610381611467607721, 1612188253.5218422413, 4, 1612188253.5236780643, -0.49938315844795294618, 1612188253.5236780643, 1.1861622473044712844, 1612188253.5236780643, 0.032577739205851469206, 1612188247.0288622379, 0.49999999996814736836, 1612188247.0288622379, 0.99999998971618364596, 1612188247.0288622379, -0.60341454137876959773, 1612188247.029173851, 1.5677000004114438614, 1612188247.029173851, -0.0089173892533731223542, 1612188247.029173851, -6.5919641048158296717e-11, , , , , , 
1612188257.4097206593, -0.11985223269371282628, 1612188257.4091074467, 0.23673618937256743489, 1612188257.4091234207, 0.052955986381500924631, 1612188253.9434628487, 4, 1612188253.9476051331, -0.49938320411254139009, 1612188253.9476051331, 1.1861655282782084253, 1612188253.9476051331, 0.027990622703582240804, 1612188247.188495636, 0.49999999996469318697, 1612188247.188495636, 0.9999999886007424621, 1612188247.188495636, -0.60446948719304260944, 1612188247.1892280579, 1.5677000004129300059, 1612188247.1892280579, -0.0087664721850476273746, 1612188247.1892280579, -6.4185802953798099028e-11, , , , , , 
1612188257.913970232, -0.1198521961230059607, 1612188257.9135017395, 0.23672721090238149633, 1612188257.9139904976, 0.054928697005391192987, 1612188254.2632398605, 4, 1612188254.265661478, -0.4993832684491317786, 1612188254.265661478, 1.1861746305860463302, 1612188254.265661478, 0.023408039700634306057, 1612188247.337978363, 0.49999999996133287494, 1612188247.337978363, 0.99999998751561836041, 1612188247.337978363, -0.6055257370167463904, 1612188247.3389136791, 1.5677000004144032719, 1612188247.3389136791, -0.0086163607204433386583, 1612188247.3389136791, -6.2506075039474016982e-11, , , , , , 
1612188258.2993574142, -0.11985229369952415945, 1612188258.2993338108, 0.23674648673307308044, 1612188258.2993500233, 0.05828166130342994633, 1612188254.61820364, 4, 1612188254.6207823753, -0.49938334931828687324, 1612188254.6207823753, 1.1861888612512665464, 1612188254.6207823753, 0.018829181318229012976, 1612188247.3953118324, 0.49999999995806909681, 1612188247.3953118324, 0.99999998646166821104, 1612188247.3953118324, -0.60658326413936591859, 1612188247.3954584599, 1.567700000415862327, 1612188247.3954584599, -0.0084672239033776654921, 1612188247.3954584599, -6.0881972343973857038e-11, , , , , , 
1612188258.8073830605, -0.11985390152569135036, 1612188258.8067362309, 0.23682204827827313398, 1612188258.8069653511, 0.060269632363068120773, 1612188254.9395215511, 4, 1612188254.9428822994, -0.49938344432362846703, 1612188254.9428822994, 1.186207448891855476, 1612188254.9428822994, 0.014253037774193705323, 1612188247.4629552364, 0.49999999995490446159, 1612188247.4629552364, 0.99999998543970625153, 1612188247.4629552364, -0.60764204239752184211, 1612188247.4635276794, 1.5677000004173087255, 1612188247.4635276794, -0.0083192280715046994233, 1612188247.4635276794, -5.9314946574725333883e-11, , , , , , 
1612188259.2088978291, -0.11980929299307827018, 1612188259.2085940838, 0.23842376509847176824, 1612188259.2088811398, 0.06246250003263130457, 1612188255.5361700058, 4, 1612188255.5428552628, -0.49938355086879071543, 1612188255.5428552628, 1.1862295618608693637, 1612188255.5428552628, 0.0096784399920126634731, 1612188247.5086026192, 0.49999999995184124524, 1612188247.5086026192, 0.99999998445050286566, 1612188247.5086026192, -0.60870204616375944706, 1612188247.5101070404, 1.5677000004187424675, 1612188247.5101070404, -0.0081725366857269762799, 1612188247.5101070404, -5.7806359221192913783e-11, , , , , , 
1612188259.8833353519, -0.11830058109426574986, 1612188259.8830904961, 0.24320643765041949358, 1612188259.8829669952, 0.065718787730313033002, 1612188255.9679954052, 4, 1612188255.9708006382, -0.4993836662248698488, 1612188255.9708006382, 1.1862543269774306065, 1612188255.9708006382, 0.005104101835402177767, 1612188247.5791940689, 0.49999999994888172372, 1612188247.5791940689, 0.99999998349478513848, 1612188247.5791940689, -0.60976325033556555422, 1612188247.5806000233, 1.5677000004201637751, 1612188247.5806000233, -0.0080273101645642209317, 1612188247.5806000233, -5.6357490231335965332e-11, , , , , , 
1612188260.4145777225, -0.11733317420739551584, 1612188260.4143311977, 0.24203560990214653681, 1612188260.4144539833, 0.067590091429053075767, 1612188256.3980593681, 4, 1612188256.3980827332, -0.49938378758942342239, 1612188256.3980827332, 1.1862808485014297855, 1612188256.3980827332, 0.00052866201149270874993, 1612188247.7325987816, 0.49999999994602795095, 1612188247.7325987816, 0.99999998257323452489, 1612188247.7325987816, -0.6108256303246137886, 1612188247.7330520153, 1.5677000004215719819, 1612188247.7330520153, -0.0078837057236281378458, 1612188247.7330520153, -5.4969538881379848385e-11, , , , , , 
1612188260.9206395149, -0.11061274887862165839, 1612188260.9202423096, 0.24297526302775546148, 1612188260.9203686714, 0.070519297772446976058, 1612188256.8162226677, 4, 1612188256.8190655708, -0.49938391213467386853, 1612188256.8190655708, 1.186308226984611025, 1612188256.8190655708, -0.0040492750268380089951, 1612188247.7818078995, 0.49999999994328198083, 1612188247.7818078995, 0.99999998168648862595, 1612188247.7818078995, -0.61188916204622700867, 1612188247.7810800076, 1.5677000004229684205, 1612188247.7810800076, -0.0077418772203448173522, 1612188247.7810800076, -5.3643619441121122941e-11, , , , , , 
1612188261.5168344975, -0.11058168059723645638, 1612188261.5165636539, 0.23882267008227742178, 1612188261.5165820122, 0.072216864599089672372, 1612188257.2262527943, 4, 1612188257.2290260792, -0.49938403709327172653, 1612188257.2290260792, 1.186335577616683512, 1612188257.2290260792, -0.0086310999424139972502, 1612188247.8257923126, 0.49999999994064570075, 1612188247.8257923126, 0.9999999808351394126, 1612188247.8257923126, -0.61295382190905733921, 1612188247.8264846802, 1.5677000004243528686, 1612188247.8264846802, -0.0076019750040590278184, 1612188247.8264846802, -5.2380763778214724367e-11, , , , , , 
1612188262.2308027744, -0.10765245400298245615, 1612188262.2304985523, 0.23650991948171329327, 1612188262.2306511402, 0.074035786889315308157, 1612188257.5396366119, 4, 1612188257.5451087952, -0.49938415977802225187, 1612188257.5451087952, 1.1863620477619560845, 1612188257.5451087952, -0.013218161885177784343, 1612188247.883313179, 0.49999999993812077603, 1612188247.883313179, 0.99999998001973389172, 1612188247.883313179, -0.61401958680497825682, 1612188247.8841562271, 1.5677000004257235499, 1612188247.8841562271, -0.007464145771646821248, 1612188247.8841562271, -5.1181923962297175905e-11, , , , , , 
1612188262.8250916004, -0.094990791974982696777, 1612188262.824763298, 0.22629473219174328635, 1612188262.8247792721, 0.076428008528810334465, 1612188258.0605931282, 4, 1612188258.0605709553, -0.49938427766823551002, 1612188258.0605709553, 1.1863868332905209702, 1612188258.0605709553, -0.017811734798735531782, 1612188247.9303612709, 0.49999999993570864998, 1612188247.9303612709, 0.99999997924077266287, 1612188247.9303612709, -0.61508643409918273282, 1612188247.9308195114, 1.5677000004270822409, 1612188247.9308195114, -0.0073285324287554716796, 1612188247.9308195114, -5.0047970532018764773e-11, , , , , , 
1612188263.2533326149, -0.097858090375739961719, 1612188263.2531199455, 0.22739991496208608601, 1612188263.2533833981, 0.077851994662557127969, 1612188258.2690541744, 4, 1612188258.2751789093, -0.49938438842763044345, 1612188258.2751789093, 1.1864091934538012474, 1612188258.2751789093, -0.022412987335354420115, 1612188247.9779772758, 0.49999999993341082138, 1612188247.9779772758, 0.9999999784987114726, 1612188247.9779772758, -0.61615434162048343669, 1612188247.9783246517, 1.5677000004284296075, 1612188247.9783246517, -0.0071952739567819664485, 1612188247.9783246517, -4.8979674281635457377e-11, , , , , , 
1612188263.8495979309, -0.082418301681871572462, 1612188263.8490834236, 0.21208939450809752292, 1612188263.848896265, 0.079808113185793186362, 1612188258.5962741375, 4, 1612188258.5985713005, -0.49938701858081963048, 1612188258.5985713005, 1.1865579570031294931, 1612188258.5985713005, -0.027065037140182837683, 1612188248.1258323193, 0.49999999993122856701, 1612188248.1258323193, 0.99999997779395977116, 1612188248.1258323193, -0.61722328765181466714, 1612188248.1262326241, 1.5677000004297652058, 1612188248.1262326241, -0.0070645052856934901359, 1612188248.1262326241, -4.7977734018869582e-11, , , , , , 
1612188264.4772853851, -0.086577287724446269634, 1612188264.4760818481, 0.21587839063041514009, 1612188264.4767370224, 0.080987555963591778552, 1612188259.0056762695, 4, 1612188259.0118179321, -0.49932035387720863362, 1612188259.0118179321, 1.1891304823844774941, 1612188259.0118179321, -0.031630276521234373943, 1612188248.1825013161, 0.49999999992916288605, 1612188248.1825013161, 0.99999997712688115659, 1612188248.1825013161, -0.61829325092092690674, 1612188248.182528019, 1.5677000004310883696, 1612188248.182528019, -0.0069363571727854081428, 1612188248.182528019, -4.704275531534299583e-11, , , , , , 
1612188265.0672302246, -0.082137265309460083529, 1612188265.0667128563, 0.21135297378187650752, 1612188265.0665585995, 0.082185829919189462567, 1612188259.235401392, 4, 1612188259.2366318703, -0.49867460873260854859, 1612188259.2366318703, 1.1933554262931533874, 1612188259.2366318703, -0.036110135940408447097, 1612188248.2351408005, 0.49999999992721488873, 1612188248.2351408005, 0.99999997649779381881, 1612188248.2351408005, -0.61936421059127144684, 1612188248.2349431515, 1.5677000004323997651, 1612188248.2349431515, -0.0068109560874646674078, 1612188248.2349431515, -4.6175265687013936209e-11, , , , , , 
1612188265.8076996803, -0.064937310305397982768, 1612188265.8077654839, 0.19176009194072773933, 1612188265.8076758385, 0.083555668579175887412, 1612188259.776799202, 4, 1612188259.7815248966, -0.49694894602351818991, 1612188259.7815248966, 1.1984218311916119415, 1612188259.7815248966, -0.040459103714926690498, 1612188248.3962774277, 0.49999999992538540772, 1612188248.3962774277, 0.99999997590696965144, 1612188248.3962774277, -0.62043614625307441646, 1612188248.3963372707, 1.5677000004337005024, 1612188248.3963372707, -0.0066884241021382814449, 1612188248.3963372707, -4.5375710258310909461e-11, , , , , , 
1612188266.4131913185, -0.069699462808640352818, 1612188266.4114384651, 0.19723090176135538165, 1612188266.4127099514, 0.084388124765662958504, 1612188260.1415572166, 4, 1612188260.145812273, -0.49367392020695238797, 1612188260.145812273, 1.2035795495852901205, 1612188260.145812273, -0.044633101336265773584, 1612188248.4429337978, 0.49999999992367516466, 1612188248.4429337978, 0.99999997535463569509, 1612188248.4429337978, -0.62150903791459000125, 1612188248.4429657459, 1.5677000004349894713, 1612188248.4429657459, -0.0065688787892789852682, 1612188248.4429657459, -4.464444222186501943e-11, , , , , , 
1612188266.9372661114, -0.052311394000634656165, 1612188266.9365289211, 0.17580825938127531138, 1612188266.9367849827, 0.085341253643306858034, 1612188260.4801337719, 4, 1612188260.4833395481, -0.48841631974150673257, 1612188260.4833395481, 1.2079974281430656546, 1612188260.4833395481, -0.04853887310003153488, 1612188248.4990222454, 0.49999999992208460364, 1612188248.4990222454, 0.99999997484097302713, 1612188248.4990222454, -0.62258286599353762636, 1612188248.4993274212, 1.567700000436267338, 1612188248.4993274212, -0.0064524331247318980273, 1612188248.4993274212, -4.3981727609916029612e-11, , , , , , 
1612188267.5097463131, -0.05706779571256563599, 1612188267.5105171204, 0.18165982564102273189, 1612188267.5104162693, 0.085925259668886214137, 1612188260.8922505379, 4, 1612188260.8929014206, -0.48090339416012412022, 1612188260.8929014206, 1.2087257225779113323, 1612188260.8929014206, -0.052231899106248320941, 1612188248.5528306961, 0.49999999992061427978, 1612188248.5528306961, 0.99999997436611787194, 1612188248.5528306961, -0.62365761130871066875, 1612188248.5537517071, 1.5677000004375338804, 1612188248.5537517071, -0.0063391953973183923221, 1612188248.5537517071, -4.3387761341492014494e-11, , , , , , 
1612188268.060936451, -0.05214226516213871232, 1612188268.0573165417, 0.17548930874584808826, 1612188268.0574958324, 0.086470914634115686459, 1612188261.3842606544, 4, 1612188261.3871891499, -0.47131642710758275827, 1612188261.3871891499, 1.205949998877646312, 1612188261.3871891499, -0.055679257240725386902, 1612188248.699524641, 0.49999999991926441512, 1612188248.699524641, 0.99999997393016204494, 1612188248.699524641, -0.62473325507175880844, 1612188248.7002282143, 1.5677000004387877663, 1612188248.7002282143, -0.0062292691247851977518, 1612188248.7002282143, -4.2862638165711766382e-11, , , , , , 
1612188268.8206160069, -0.035934838246186012745, 1612188268.8206043243, 0.15368576151100851734, 1612188268.820579052, 0.086925373637251487913, 1612188261.8101241589, 4, 1612188261.8140404224, -0.45986714016034235808, 1612188261.8140404224, 1.1999541466400174272, 1612188261.8140404224, -0.058890856544077753443, 1612188248.8571708202, 0.49999999991803512067, 1612188248.8571708202, 0.9999999735331520645, 1612188248.8571708202, -0.62580977887913957769, 1612188248.8585121632, 1.567700000440030994, 1612188248.8585121632, -0.0061227529761390805593, 1612188248.8585121632, -4.2406386056308077689e-11, , , , , , 
1612188269.2880549431, -0.040309967746693958768, 1612188269.2880239487, 0.1595336956171397591, 1612188269.2880387306, 0.087215853287404887517, 1612188262.3417263031, 4, 1612188262.346944809, -0.44675961859695956235, 1612188262.346944809, 1.1910163832914937299, 1612188262.346944809, -0.061870719909724855579, 1612188248.9038529396, 0.49999999991692645196, 1612188248.9038529396, 0.9999999731750909282, 1612188248.9038529396, -0.62688716470423277993, 1612188248.9039778709, 1.5677000004412640077, 1612188248.9039778709, -0.0060197407003993487484, 1612188248.9039778709, -4.2018951466461231471e-11, , , , , , 
1612188269.9244930744, -0.025594555172791667863, 1612188269.9243543148, 0.1384951314955789603, 1612188269.9243724346, 0.087347905456835614468, 1612188262.674120903, 4, 1612188262.674851656, -0.43218846857220283297, 1612188262.674851656, 1.1794167634107592946, 1612188262.674851656, -0.064622732368630947386, 1612188248.9668147564, 0.49999999991593813142, 1612188248.9668147564, 0.99999997285593722474, 1612188248.9668147564, -0.62796539488961922171, 1612188248.9667770863, 1.5677000004424856971, 1612188248.9667770863, -0.0059203210617927064588, 1612188248.9667770863, -4.1700178945643811969e-11, , , , , , 
1612188270.3226795197, -0.029517091863010630481, 1612188270.3225791454, 0.14406737798582397447, 1612188270.3225553036, 0.087447361570040266221, 1612188262.9899692535, 4, 1612188262.9967434406, -0.41634219090873469948, 1612188262.9967434406, 1.165425908024952717, 1612188262.9967434406, -0.06715046761050272317, 1612188249.018106699, 0.49999999991507015906, 1612188249.018106699, 0.99999997257560746533, 1612188249.018106699, -0.62904445213951520888, 1612188249.0187523365, 1.5677000004436960623, 1612188249.0187523365, -0.0058245777814072193651, 1612188249.0187523365, -4.1449859712872613243e-11, , , , , , 
1612188270.8456356525, -0.025362133447479617843, 1612188270.8456435204, 0.13803633324573588714, 1612188270.8456189632, 0.08747788906329476144, 1612188263.5118973255, 4, 1612188263.515610218, -0.39944143554960032105, 1612188263.515610218, 1.1493389900864694475, 1612188263.515610218, -0.069456915643941158356, 1612188249.0721158981, 0.49999999991432203528, 1612188249.0721158981, 0.99999997233397508456, 1612188249.0721158981, -0.6301243195123645835, 1612188249.0728371143, 1.5677000004448964354, 1612188249.0728371143, -0.005732589485314279823, 1612188249.0728371143, -4.1267687420484390698e-11, , , , , , 
1612188271.5261309147, -0.013156910528192174853, 1612188271.5251476765, 0.24903667693357312007, 1612188271.5251209736, 0.087250488497756295558, 1612188263.8090548515, 4, 1612188263.8149802685, -0.38167679775425239486, 1612188263.8149802685, 1.1314318844978705769, 1612188263.8149802685, -0.071549562720971945917, 1612188249.1295545101, 0.49999999991369320496, 1612188249.1295545101, 0.99999997213087099546, 1612188249.1295545101, -0.63120498041357941954, 1612188249.1302797794, 1.5677000004460852622, 1612188249.1302797794, -0.0056444296591598042828, 1612188249.1302797794, -4.1153278971152167358e-11, , , , , , 
1612188272.013217926, -0.016345322614075896706, 1612188272.0121610165, 0.15595621987286845123, 1612188272.0125007629, 0.08713726687066258858, 1612188264.2419457436, 4, 1612188264.2481861115, -0.36322047725209732905, 1612188264.2481861115, 1.111959953857607708, 1612188264.2481861115, -0.073437366505069268108, 1612188249.2832429409, 0.49999999991318300196, 1612188249.2832429409, 0.99999997196608469974, 1612188249.2832429409, -0.63228641858843315227, 1612188249.283264637, 1.5677000004472632089, 1612188249.283264637, -0.0055601666092183763337, 1612188249.283264637, -4.1106178854644092644e-11, , , , , , 
1612188272.7572510242, -0.0059981026844736252956, 1612188272.7563269138, 0.1398146424772979679, 1612188272.7569260597, 0.086692803611798152641, 1612188264.6660494804, 4, 1612188264.6714820862, -0.3442863481754625532, 1612188264.6714820862, 1.0912066048062210033, 1612188264.6714820862, -0.075128190005535361307, 1612188249.4507133961, 0.49999999991279076017, 1612188249.4507133961, 0.99999997183936550904, 1612188249.4507133961, -0.63336861811509692632, 1612188249.4506893158, 1.5677000004484320517, 1612188249.4506893158, -0.0054798634298964194259, 1612188249.4506893158, -4.112585654551960069e-11, , , , , , 
1612188273.2739367485, -0.0086084516062505458955, 1612188273.2734684944, 0.14580786470282386391, 1612188273.2739772797, 0.086447526628623982958, 1612188265.0874638557, 4, 1612188265.0933301449, -0.3250478275583701393, 1612188265.0933301449, 1.069413381631001414, 1612188265.0933301449, -0.076629259431011190196, 1612188249.5948929787, 0.49999999991251548037, 1612188249.5948929787, 0.99999997175042221187, 1612188249.5948929787, -0.6344515633978193847, 1612188249.5949213505, 1.5677000004495893482, 1612188249.5949213505, -0.0054035779776629919158, 1612188249.5949213505, -4.1211700864978415548e-11, , , , , , 
1612188273.7009644508, -0.0056435942547670720632, 1612188273.6999316216, 0.14209944504268762211, 1612188273.6999564171, 0.086120621918816864238, 1612188265.7303063869, 4, 1612188265.7355093956, -0.30560881961561803255, 1612188265.7355093956, 1.0467490600323929861, 1612188265.7355093956, -0.077946701521081879216, 1612188249.6609683037, 0.49999999991235616337, 1612188249.6609683037, 0.99999997169892407278, 1612188249.6609683037, -0.6355352391602470119, 1612188249.660033226, 1.5677000004507364306, 1612188249.660033226, -0.0053313628513795372627, 1612188249.660033226, -4.1363033858602101508e-11, , , , , , 
1612188274.2512841225, 0.0023287575066339334662, 1612188274.2512643337, 0.12640615627885415373, 1612188274.2512924671, 0.085452475025417029553, 1612188266.1563072205, 4, 1612188266.1564824581, -0.2860765722759772145, 1612188266.1564824581, 1.0233803559235354896, 1612188266.1564824581, -0.079084145071334016608, 1612188249.7234628201, 0.49999999991231169894, 1612188249.7234628201, 0.99999997168450194263, 1612188249.7234628201, -0.63661963043888047942, 1612188249.7234418392, 1.5677000004518730769, 1612188249.7234418392, -0.0052632653789925929952, 1612188249.7234418392, -4.157910212231588739e-11, , , , , , 
1612188274.9006583691, 0.00032848404730828530823, 1612188274.9003493786, 0.13290872729090452697, 1612188274.9006435871, 0.085073910584733403173, 1612188266.483232975, 4, 1612188266.4866650105, -0.26660875453692173265, 1612188266.4866650105, 0.99951681568582906312, 1612188266.4866650105, -0.080045630307835444195, 1612188249.9838449955, 0.49999999991238086583, 1612188249.9838449955, 0.99999997170674848057, 1612188249.9838449955, -0.6377047225766652172, 1612188249.9853265285, 1.5677000004529992871, 1612188249.9853265285, -0.0051993276105463722553, 1612188249.9853265285, -4.1859078536829098118e-11, , , , , , 
1612188275.5172641277, 0.006639380604321919177, 1612188275.517029047, 0.11899385611924512274, 1612188275.5170505047, 0.08429139527029541612, 1612188266.8975305557, 4, 1612188266.9042346478, -0.24729822726215469619, 1612188266.9042346478, 0.97529798551128166206, 1612188266.9042346478, -0.080835834463388808735, 1612188250.1512145996, 0.49999999991256210974, 1612188250.1512145996, 0.99999997176521993048, 1612188250.1512145996, -0.63879050121671399065, 1612188250.1512389183, 1.5677000004541163936, 1612188250.1512389183, -0.0051395863174650288988, 1612188250.1512389183, -4.2202077446339114278e-11, , , , , , 
1612188276.0373518467, 0.0050668854034626054778, 1612188276.0373625755, 0.12513091871107206998, 1612188276.0372414589, 0.083845688771716039844, 1612188267.2196896076, 4, 1612188267.2251617908, -0.22823270603673007084, 1612188267.2251617908, 0.95086244887633408762, 1612188267.2251617908, -0.081459756503125160809, 1612188250.3120677471, 0.49999999991285404288, 1612188250.3120677471, 0.99999997185943645395, 1612188250.3120677471, -0.6398769522961581524, 1612188250.3123922348, 1.567700000455223508, 1612188250.3123922348, -0.0050840729980475337507, 1612188250.3123922348, -4.2607136443338819651e-11, , , , , , 
1612188276.5391151905, 0.0068559009607150446855, 1612188276.5385346413, 0.1225490086507278753, 1612188276.5390925407, 0.083323122968280524669, 1612188267.7748372555, 4, 1612188267.7804338932, -0.20955278784918685009, 1612188267.7804338932, 0.92640495928400856673, 1612188267.7804338932, -0.08192447156992277435, 1612188250.3749547005, 0.49999999991325511095, 1612188250.3749547005, 0.99999997198888179728, 1612188250.3749547005, -0.64096406204012312813, 1612188250.375305891, 1.5677000004563197422, 1612188250.375305891, -0.0050328138891113658251, 1612188250.375305891, -4.3073227210436603851e-11, , , , , , 
1612188277.2696902752, 0.011208441434725640445, 1612188277.2696681023, 0.10863561921043725367, 1612188277.269682169, 0.082466560532425847718, 1612188268.0871729851, 4, 1612188268.091493845, -0.19135733167481444594, 1612188268.091493845, 0.90207478629757498201, 1612188268.091493845, -0.08223954466875325886, 1612188250.434923172, 0.4999999999137635931, 1612188250.434923172, 0.9999999721530065111, 1612188250.434923172, -0.64205181695583191104, 1612188250.4348683357, 1.5677000004574057623, 1612188250.4348683357, -0.0049858299837145427652, 1612188250.4348683357, -4.3599266795842228394e-11, , , , , , 
1612188277.8013789654, 0.010146840832626782478, 1612188277.8004994392, 0.11213543835401958149, 1612188277.8013951778, 0.081973996710549404399, 1612188268.6333289146, 4, 1612188268.6384692192, -0.17367428138381121872, 1612188268.6384692192, 0.87794007622287795201, 1612188268.6384692192, -0.08241210109751476165, 1612188250.4908940792, 0.49999999991437760194, 1612188250.4908940792, 0.99999997235122706218, 1612188250.4908940792, -0.64314020382682346444, 1612188250.4909155369, 1.5677000004584831228, 1612188250.4909155369, -0.0049431370548789670474, 1612188250.4909155369, -4.4184105469787025634e-11, , , , , , 
1612188278.3468031883, 0.013268964766096933566, 1612188278.3461301327, 0.099576996225615443947, 1612188278.3468911648, 0.081111754333604596523, 1612188269.1379673481, 4, 1612188269.143055439, -0.15653975117314872234, 1612188269.143055439, 0.85407907759762691224, 1612188269.143055439, -0.082447762048599021467, 1612188250.5355296135, 0.4999999999150952501, 1612188250.5355296135, 0.99999997258292794289, 1612188250.5355296135, -0.64422920970729391499, 1612188250.5362429619, 1.5677000004595507132, 1612188250.5362429619, -0.0049047456852318403048, 1612188250.5362429619, -4.482653192840918848e-11, , , , , , 
1612188278.7527396679, 0.012527163317172719526, 1612188278.7524554729, 0.102659248043455123, 1612188278.7527198792, 0.080612558938964740118, 1612188269.4582755566, 4, 1612188269.4619977474, -0.14003509685452888989, 1612188269.4619977474, 0.83062197256935133005, 1612188269.4619977474, -0.082353417050901975283, 1612188250.683426857, 0.49999999991591459469, 1612188250.683426857, 0.9999999728474624483, 1612188250.683426857, -0.64531882191655298708, 1612188250.6834535599, 1.5677000004606085337, 1612188250.6834535599, -0.0048706613024755950059, 1612188250.6834535599, -4.5525278497638762864e-11, , , , , , 
1612188279.0817351341, 0.013412974642326949692, 1612188279.0809009075, 0.098967081855124927614, 1612188279.0812840462, 0.080056627742496375144, 1612188269.9019412994, 4, 1612188269.9083073139, -0.12418389392172947405, 1612188269.9083073139, 0.80762440780503619298, 1612188269.9083073139, -0.082136174013163476548, 1612188250.7429962158, 0.49999999991683352629, 1612188250.7429962158, 0.9999999731441524542, 1612188250.7429962158, -0.64640902803359423512, 1612188250.7429625988, 1.5677000004616579165, 1612188250.7429625988, -0.0048408842205908764536, 1612188250.7429625988, -4.6279025903399761404e-11, , , , , , 
1612188279.6872339249, 0.015197839549479202903, 1612188279.6865479946, 0.088199875272127525871, 1612188279.6867246628, 0.079241574940166162322, 1612188270.2031686306, 4, 1612188270.2075445652, -0.10900693068759564897, 1612188270.2075445652, 0.78514481865807528305, 1612188270.2075445652, -0.081802472388241218026, 1612188250.8842525482, 0.49999999991784987996, 1612188250.8842525482, 0.9999999734722911926, 1612188250.8842525482, -0.64749981589177296737, 1612188250.8845555782, 1.5677000004626973073, 1612188250.8845555782, -0.0048154096866711310759, 1612188250.8845555782, -4.7086395031241043527e-11, , , , , , 
1612188280.1997566223, 0.014802295912802363245, 1612188280.1997737885, 0.090837888029012561764, 1612188280.1997900009, 0.078763435187801780768, 1612188270.6188795567, 4, 1612188270.6227557659, -0.094559783214181417077, 1612188270.6227557659, 0.7632829395010181095, 1612188270.6227557659, -0.081359349293256999491, 1612188251.0290210247, 0.49999999991896132423, 1612188251.0290210247, 0.99999997383114391791, 1612188251.0290210247, -0.64859117357360085432, 1612188251.0292365551, 1.5677000004637278163, 1612188251.0292365551, -0.0047942279332817980611, 1612188251.0292365551, -4.7945955599730511674e-11, , , , , , 
1612188280.8334224224, 0.01581907789284628732, 1612188280.8332343102, 0.081315724531331054492, 1612188280.833160162, 0.078006726420534952537, 1612188270.9671330452, 4, 1612188270.9723773003, -0.080869541529369648458, 1612188270.9723773003, 0.7421012431334340631, 1612188270.9723773003, -0.080816341793120263781, 1612188251.0943291187, 0.49999999992016547212, 1612188251.0943291187, 0.99999997421994812896, 1612188251.0943291187, -0.64968308940563901377, 1612188251.0950498581, 1.5677000004647489995, 1612188251.0950498581, -0.0047773242362314990994, 1612188251.0950498581, -4.8856229195935726481e-11, , , , , , 
1612188281.4221127033, 0.015619384413877394208, 1612188281.4225590229, 0.083647868487775778323, 1612188281.421765089, 0.077560682523532598065, 1612188271.4461247921, 4, 1612188271.4510335922, -0.067916235072673428186, 1612188271.4510335922, 0.7215968861388988298, 1612188271.4510335922, -0.080182276420178541509, 1612188251.142645359, 0.49999999992145993666, 1612188251.142645359, 0.99999997463791601149, 1612188251.142645359, -0.65077555195350178519, 1612188251.1432089806, 1.5677000004657604126, 1612188251.1432089806, -0.0047646789776373543734, 1612188251.1432089806, -4.9815691009853061555e-11, , , , , , 
1612188281.8715238571, 0.015911651344629997029, 1612188281.8710172176, 0.080860766727416100164, 1612188281.8715410233, 0.077079973685786215554, 1612188271.7676475048, 4, 1612188271.7698390484, -0.05568276028369306685, 1612188271.7698390484, 0.70174204145594809567, 1612188271.7698390484, -0.079463617539717451566, 1612188251.2082653046, 0.49999999992284227535, 1612188251.2082653046, 0.99999997508423377202, 1612188251.2082653046, -0.65186855001695998002, 1612188251.2082891464, 1.5677000004667624999, 1612188251.2082891464, -0.0047562677141614155552, 1612188251.2082891464, -5.0822769834099197412e-11, , , , , , 
1612188282.7724823952, 0.016173004260710648755, 1612188282.7717707157, 0.072869568911230975239, 1612188282.7724561691, 0.076426485364538179756, 1612188272.0897612572, 4, 1612188272.0925836563, -0.044156490156138476777, 1612188272.0925836563, 0.68221643966600375997, 1612188272.0925836563, -0.078662871108136300791, 1612188251.4511666298, 0.49999999992430971263, 1612188251.4511666298, 0.99999997555806396932, 1612188251.4511666298, -0.65296207262514527336, 1612188251.4515748024, 1.5677000004677563716, 1612188251.4515748024, -0.0047520612502902253096, 1612188251.4515748024, -5.1875855869949757713e-11, , , , , , 
1612188283.0943384171, 0.016155378243307712272, 1612188283.0931117535, 0.074818032652183175113, 1612188283.0943543911, 0.076040638336511298667, 1612188272.7372114658, 4, 1612188272.7442035675, -0.033301525430911783909, 1612188272.7442035675, 0.66276751792288268739, 1612188272.7442035675, -0.07778601804188751967, 1612188251.4998054504, 0.49999999992585980602, 1612188251.4998054504, 0.99999997605854684668, 1612188251.4998054504, -0.65405610903185384952, 1612188251.5002655983, 1.5677000004687411394, 1612188251.5002655983, -0.0047520257165248333889, 1612188251.5002655983, -5.2973294655433839319e-11, , , , , , 
1612188283.8021295071, 0.016009864362662336312, 1612188283.802025795, 0.067831137230967369911, 1612188283.8019278049, 0.075477766690831143981, 1612188273.0656757355, 4, 1612188273.0726163387, -0.023100053586980189013, 1612188273.0726163387, 0.6433627637206176253, 1612188273.0726163387, -0.076839046972106403444, 1612188251.6564903259, 0.49999999992748966893, 1612188251.6564903259, 0.99999997658480122009, 1612188251.6564903259, -0.65515064871094375043, 1612188251.6569457054, 1.5677000004697159152, 1612188251.6569457054, -0.0047561226523439885036, 1612188251.6569457054, -5.411338706502791669e-11, , , , , , 
1612188284.4115481377, 0.016084698784095300544, 1612188284.4089243412, 0.069524443052797035847, 1612188284.4089872837, 0.075143199471524133037, 1612188273.489161253, 4, 1612188273.492231369, -0.013559952154938333113, 1612188273.492231369, 0.62400834094271784291, 1612188273.492231369, -0.0758296218930699234, 1612188251.7107231617, 0.49999999992919658132, 1612188251.7107231617, 0.9999999771359258105, 1612188251.7107231617, -0.65624568135182981266, 1612188251.7106981277, 1.5677000004706822534, 1612188251.7106981277, -0.0047643090937989074352, 1612188251.7106981277, -5.5294411427318903987e-11, , , , , , 
1612188285.0055296421, 0.016040406434697430937, 1612188285.005341053, 0.067472857380437317731, 1612188285.0053570271, 0.074793162169221938385, 1612188273.7434089184, 4, 1612188273.7476861477, -0.0046747456584918176126, 1612188273.7476861477, 0.6047191738134107819, 1612188273.7476861477, -0.074766227246063493572, 1612188251.7646753788, 0.49999999993097760109, 1612188251.7646753788, 0.99999997771099946586, 1612188251.7646753788, -0.65734119685506875452, 1612188251.7672724724, 1.5677000004716403758, 1612188251.7672724724, -0.004776537665593926299, 1612188251.7672724724, -5.6514603575140704287e-11, , , , , , 
1612188285.4414095879, 0.015528910278555012325, 1612188285.4413838387, 0.061674397914560488698, 1612188285.44140172, 0.074353057262101909797, 1612188274.1810870171, 4, 1612188274.1839556694, 0.0035804465914204427167, 1612188274.1839556694, 0.58580652125043819467, 1612188274.1839556694, -0.073655664251355973393, 1612188252.0661172867, 0.49999999993282984168, 1612188252.0661172867, 0.99999997830908282648, 1612188252.0661172867, -0.65843718532803596766, 1612188252.0665953159, 1.5677000004725889504, 1612188252.0665953159, -0.004792756677503353345, 1612188252.0665953159, -5.7772171156876351677e-11, , , , , , 
1612188285.9514775276, 0.015686170630810469112, 1612188285.9508035183, 0.063075476237136191004, 1612188285.9511530399, 0.074090196017655568506, 1612188274.4982805252, 4, 1612188274.5031285286, 0.011224637262509747429, 1612188274.5031285286, 0.56747480852641118965, 1612188274.5031285286, -0.072502255485339436869, 1612188252.2103734016, 0.49999999993475041649, 1612188252.2103734016, 0.99999997892922098952, 1612188252.2103734016, -0.65953363708068990512, 1612188252.2109417915, 1.5677000004735299754, 1612188252.2109417915, -0.0048129102249711451164, 1612188252.2109417915, -5.9065297972975682247e-11, , , , , , 
1612188286.4757962227, 0.015000753520557109921, 1612188286.4757876396, 0.058040707040214467582, 1612188286.4757678509, 0.073742971410832386381, 1612188275.0797610283, 4, 1612188275.0763959885, 0.018265487709675391759, 1612188275.0763959885, 0.54974120527685965687, 1612188275.0763959885, -0.071315512555772467285, 1612188252.3547279835, 0.4999999999367367165, 1612188252.3547279835, 0.99999997957044295394, 1612188252.3547279835, -0.6606305426214238441, 1612188252.3550636768, 1.5677000004744616746, 1612188252.3550636768, -0.0048369382937365496683, 1612188252.3550636768, -6.0392126628162195101e-11, , , , , , 
1612188286.8753523827, 0.015194273541770235772, 1612188286.8749859333, 0.059249381944570779501, 1612188286.8750140667, 0.073532758131048009398, 1612188275.4963853359, 4, 1612188275.5166471004, 0.024730647386688044131, 1612188275.5166471004, 0.53258368307889325521, 1612188275.5166471004, -0.070104079995775225864, 1612188252.5068602562, 0.49999999993878474491, 1612188252.5068602562, 0.9999999802317629527, 1612188252.5068602562, -0.66172789265300402395, 1612188252.5086057186, 1.5677000004753856022, 1612188252.5086057186, -0.0048647768683255472252, 1612188252.5086057186, -6.1750792358554760261e-11, , , , , , 
1612188287.4925606251, 0.014992392389292842972, 1612188287.4915697575, 0.057764980238038131366, 1612188287.4920692444, 0.073321819584580727458, 1612188275.8226671219, 4, 1612188275.8272132874, 0.030643161356668040946, 1612188275.8272132874, 0.51599462342329294184, 1612188275.8272132874, -0.068875756198707588362, 1612188252.6701097488, 0.4999999999408918927, 1612188252.6701097488, 0.99999998091218278429, 1612188252.6701097488, -0.66282567806858760928, 1612188252.6704955101, 1.5677000004763015362, 1612188252.6704955101, -0.0048963580442449019733, 1612188252.6704955101, -6.3139402648034351133e-11, , , , , , 
1612188288.5551335812, 0.014172377975235874586, 1612188288.5554862022, 0.053593325046967593694, 1612188288.5551562309, 0.073089089562106288045, 1612188276.2449507713, 4, 1612188276.2464990616, 0.036017381505181800261, 1612188276.2464990616, 0.4999891515350358695, 1612188276.2464990616, -0.067637570526863505238, 1612188252.7231812477, 0.49999999994305516227, 1612188252.7231812477, 0.99999998161069225677, 1612188252.7231812477, -0.66392388994782569611, 1612188252.7236497402, 1.5677000004772094766, 1612188252.7236497402, -0.0049316101437127035298, 1612188252.7236497402, -6.4556042865737101133e-11, , , , , , 
1612188289.1475424767, 0.014390927348309868333, 1612188289.1465818882, 0.054588648016208690672, 1612188289.1465985775, 0.072948787636922141076, 1612188276.6684427261, 4, 1612188276.6702008247, 0.040875486093940843757, 1612188276.6702008247, 0.48456287485275151283, 1612188276.6702008247, -0.066398572963469182362, 1612188252.7743747234, 0.49999999994527122293, 1612188252.7743747234, 0.99999998232627007599, 1612188252.7743747234, -0.66502251955304547693, 1612188252.7758462429, 1.5677000004781096454, 1612188252.7758462429, -0.0049704578347567768964, 1612188252.7758462429, -6.5998783204582451595e-11, , , , , , 
1612188289.9525136948, 0.013522431202816320717, 1612188289.9525036812, 0.05095657853546946281, 1612188289.9524765015, 0.072802366680312355363, 1612188277.0915882587, 4, 1612188277.0940775871, 0.045248634401318606202, 1612188277.0940775871, 0.46968138532214276371, 1612188277.0940775871, -0.065165060891379883445, 1612188252.921223402, 0.49999999994753702159, 1612188252.921223402, 0.99999998305788595498, 1612188252.921223402, -0.66612155832550912216, 1612188252.9215352535, 1.5677000004790015986, 1612188252.9215352535, -0.0050128222535098078752, 1612188252.9215352535, -6.7465682150288780733e-11, , , , , , 
1612188290.4464552402, 0.013749843975925926318, 1612188290.4464166164, 0.051822354558561073423, 1612188290.4464437962, 0.072711422178826506935, 1612188277.4408311844, 4, 1612188277.4445769787, 0.049163575784579263694, 1612188277.4445769787, 0.45532222008902556443, 1612188277.4445769787, -0.063942030629587753854, 1612188253.0675702095, 0.49999999994984917207, 1612188253.0675702095, 0.99999998380450105806, 1612188253.0675702095, -0.66722099788175082136, 1612188253.06818223, 1.567700000479885114, 1612188253.06818223, -0.0050586211295279527242, 1612188253.06818223, -6.8954786047185007643e-11, , , , , , 
1612188291.0684485435, 0.013494346560289905562, 1612188291.0676326752, 0.050749376963441533706, 1612188291.0676140785, 0.072630656899697804141, 1612188278.0161144733, 4, 1612188278.0197041035, 0.052641808893256800128, 1612188278.0197041035, 0.44148548021348532622, 1612188278.0197041035, -0.06273383623903952544, 1612188253.2224574089, 0.49999999995220451021, 1612188253.2224574089, 0.99999998456507044331, 1612188253.2224574089, -0.66832083000998865341, 1612188253.2224946022, 1.5677000004807601918, 1612188253.2224946022, -0.0051077689139577206467, 1612188253.2224946022, -7.0464128663990039659e-11, , , , , , 
1612188291.7926955223, 0.012615985874441532771, 1612188291.7924590111, 0.047727499099724020326, 1612188291.7925066948, 0.072581620547039232827, 1612188278.3219788074, 4, 1612188278.3255794048, 0.05570964288141860149, 1612188278.3255794048, 0.42814749429421916638, 1612188278.3255794048, -0.061547533808149118562, 1612188253.2763319016, 0.4999999999545998719, 1612188253.2763319016, 0.99999998533854228544, 1612188253.2763319016, -0.66942104666660906531, 1612188253.2767851353, 1.5677000004816281642, 1612188253.2767851353, -0.0051601769103741066541, 1612188253.2767851353, -7.1991741168037804386e-11, , , , , , 
1612188292.2735328674, 0.012840783995351250785, 1612188292.2735033035, 0.048446827902620413775, 1612188292.2736077309, 0.07254694748209075672, 1612188278.634468317, 4, 1612188278.6422371864, 0.05839138924266701336, 1612188278.6422371864, 0.41529678908606604271, 1612188278.6422371864, -0.060387941317657865825, 1612188253.3236351013, 0.49999999995703187095, 1612188253.3236351013, 0.99999998612386087338, 1612188253.3236351013, -0.6705216399727246257, 1612188253.3240656853, 1.567700000482488365, 1612188253.3240656853, -0.0052157534081116166055, 1612188253.3240656853, -7.3535651691003511928e-11, , , , , , 
1612188292.9603657722, 0.011975179747511688691, 1612188292.9591107368, 0.045799953181993501017, 1612188292.9592759609, 0.072557263895265664, 1612188278.8855717182, 4, 1612188278.8853516579, 0.060710113999286059727, 1612188278.8853516579, 0.40294232251092720887, 1612188278.8853516579, -0.059258025726973827252, 1612188253.4723088741, 0.49999999995949750975, 1612188253.4723088741, 0.9999999869199672764, 1612188253.4723088741, -0.67162260221080283262, 1612188253.4726440907, 1.5677000004833405722, 1612188253.4726440907, -0.0052744038179083300305, 1612188253.4726440907, -7.5093878822981441849e-11, , , , , , 
1612188293.3835756779, 0.012192995064320118551, 1612188293.3827466965, 0.046429519758412078623, 1612188293.3835456371, 0.072558347646292042921, 1612188279.1143424511, 4, 1612188279.1159720421, 0.06269114529373182032, 1612188279.1159720421, 0.39108078925114242441, 1612188279.1159720421, -0.058160188615608565676, 1612188253.5338542461, 0.49999999996199306906, 1612188253.5338542461, 0.99999998772579989925, 1612188253.5338542461, -0.67272392582136197881, 1612188253.5338311195, 1.567700000484185674, 1612188253.5338311195, -0.0053360308096822815782, 1612188253.5338311195, -7.6664451127741903388e-11, , , , , , 
1612188293.9951353073, 0.011936805988846884569, 1612188293.9951531887, 0.045646024940597870745, 1612188293.9951155186, 0.072574738727565743512, 1612188279.5333821774, 4, 1612188279.5376272202, 0.064360776478337017315, 1612188279.5376272202, 0.37968724884450921753, 1612188279.5376272202, -0.057096559758911737126, 1612188253.574442625, 0.49999999996451549578, 1612188253.574442625, 0.99999998854029714668, 1612188253.574442625, -0.67382560339973496255, 1612188253.5762145519, 1.5677000004850230042, 1612188253.5762145519, -0.0054005344522584687594, 1612188253.5762145519, -7.8245390228272706371e-11, , , , , , 
1612188294.4256718159, 0.011112168142904608678, 1612188294.4257013798, 0.043422033050936711951, 1612188294.4286026955, 0.072649845173918828345, 1612188279.9643802643, 4, 1612188279.9667489529, 0.065742970648629883712, 1612188279.9667489529, 0.36874625118373238752, 1612188279.9667489529, -0.056066562958026817942, 1612188253.71803689, 0.49999999996706140371, 1612188253.71803689, 0.99999998936239675729, 1612188253.71803689, -0.67492762769290248759, 1612188253.7183513641, 1.5677000004858514526, 1612188253.7183513641, -0.0054678123548642428714, 1612188253.7183513641, -7.9834725985123310122e-11, , , , , , 
1612188295.2119190693, 0.011318823351875392097, 1612188295.210734129, 0.043951582566244151717, 1612188295.2109556198, 0.07269067788377568673, 1612188280.463811636, 4, 1612188280.4668362141, 0.066861627763096384558, 1612188280.4668362141, 0.35825647237727431538, 1612188280.4668362141, -0.055071414054209996691, 1612188253.7883572578, 0.49999999996962762872, 1612188253.7883572578, 0.99999999019103824605, 1612188253.7883572578, -0.67602999159638776927, 1612188253.7890236378, 1.5677000004866732397, 1612188253.7890236378, -0.0055377598102104097846, 1612188253.7890236378, -8.143049953150586614e-11, , , , , , 
1612188295.7573821545, 0.01053520160472747394, 1612188295.7558610439, 0.041986466867660082736, 1612188295.7573387623, 0.072804440990892130281, 1612188280.8069312572, 4, 1612188280.8115496635, 0.067739518083354405276, 1612188280.8115496635, 0.34820119270816574097, 1612188280.8115496635, -0.05411301382263380283, 1612188253.9370160103, 0.49999999997221078463, 1612188253.9370160103, 0.99999999102516423655, 1612188253.9370160103, -0.67713268815121585575, 1612188253.9376909733, 1.5677000004874876993, 1612188253.9376909733, -0.0056102699389752128806, 1612188253.9376909733, -8.3030760670443207706e-11, , , , , , 
1612188296.179879427, 0.010729968199836934645, 1612188296.179454565, 0.042452339257570151365, 1612188296.1794793606, 0.07286873209455121958, 1612188281.1156387329, 4, 1612188281.1198921204, 0.068397389885087492289, 1612188281.1198921204, 0.33856665274787756115, 1612188281.1198921204, -0.053192767503187382561, 1612188253.9877183437, 0.49999999997480776281, 1612188253.9877183437, 0.99999999186372046101, 1612188253.9877183437, -0.67823571054093545474, 1612188253.9875237942, 1.5677000004882946094, 1612188253.9875237942, -0.0056852338355083808369, 1612188253.9875237942, -8.4633567874020858885e-11, , , , , , 
1612188296.8848035336, 0.010498094946952862827, 1612188296.8848268986, 0.04186813466114588933, 1612188296.8842432499, 0.072949904227979603388, 1612188281.5270769596, 4, 1612188281.5287492275, 0.068854932574041474713, 1612188281.5287492275, 0.32935104235921264237, 1612188281.5287492275, -0.052311933824501562207, 1612188254.1393070221, 0.49999999997741506608, 1612188254.1393070221, 0.99999999270565786968, 1612188254.1393070221, -0.67933905208870282166, 1612188254.1398847103, 1.5677000004890946361, 1612188254.1398847103, -0.0057625407145727048502, 1612188254.1398847103, -8.6236994354258140967e-11, , , , , , 
1612188297.3158426285, 0.0097743285360970561665, 1612188297.3153865337, 0.040188906547178854245, 1612188297.3154025078, 0.073104167583435603062, 1612188281.8962273598, 4, 1612188281.9009582996, 0.069132141049423320722, 1612188281.9009582996, 0.32054519425832328494, 1612188281.9009582996, -0.051474090748212263102, 1612188254.1864583492, 0.49999999998002958579, 1612188254.1864583492, 0.99999999354993374112, 1612188254.1864583492, -0.68044270625442349054, 1612188254.1869232655, 1.5677000004898882235, 1612188254.1869232655, -0.0058420780589410756592, 1612188254.1869232655, -8.7839137169803833195e-11, , , , , , 
1612188298.0188736916, 0.0099517543549164314692, 1612188298.0183146, 0.040587851108205258432, 1612188298.0186970234, 0.07319290942634952557, 1612188282.419012785, 4, 1612188282.4286158085, 0.069245796079934418543, 1612188282.4286158085, 0.3121268891578460325, 1612188282.4286158085, -0.050680572847298738237, 1612188254.2308700085, 0.49999999998264832435, 1612188254.2308700085, 0.99999999439551212621, 1612188254.2308700085, -0.68154666663195329068, 1612188254.2314984798, 1.5677000004906731512, 1612188254.2314984798, -0.0059237317676674875258, 1612188254.2314984798, -8.9438091203887309558e-11, , , , , , 
1612188298.5448453426, 0.0092722534738933718584, 1612188298.5443885326, 0.039085514767472212538, 1612188298.54454422, 0.073370899200982275801, 1612188282.9338564873, 4, 1612188282.9341802597, 0.069210386130072854005, 1612188282.9341802597, 0.30407818215720094912, 1612188282.9341802597, -0.049931736101960805252, 1612188254.3272922039, 0.4999999999852680066, 1612188254.3272922039, 0.99999999524136551354, 1612188254.3272922039, -0.68265092694635731707, 1612188254.3279819489, 1.5677000004914523057, 1612188254.3279819489, -0.0060073863048516005364, 1612188254.3279819489, -9.1031994267140675665e-11, , , , , , 
1612188299.1308851242, 0.0094388243184641631989, 1612188299.1304426193, 0.039442324107768197972, 1612188299.1303966045, 0.073473922390085877332, 1612188283.3233282566, 4, 1612188283.3238289356, 0.069041058380173103703, 1612188283.3238289356, 0.29639071368282809971, 1612188283.3238289356, -0.049227774479569177957, 1612188254.3797578812, 0.49999999998788513533, 1612188254.3797578812, 0.99999999608647538452, 1612188254.3797578812, -0.68375548105122541109, 1612188254.3797998428, 1.5677000004922239107, 1612188254.3797998428, -0.0060929248487172731064, 1612188254.3797998428, -9.2618993702867250193e-11, , , , , , 
1612188299.457277298, 0.0092372232123188822289, 1612188299.4537992477, 0.038994476654658480341, 1612188299.45383358, 0.073594671707118697324, 1612188283.7790365219, 4, 1612188283.783572197, 0.06875157645613023949, 1612188283.783572197, 0.28904655784924992989, 1612188283.783572197, -0.048568782291504186688, 1612188254.4286439419, 0.49999999999049682398, 1612188254.4286439419, 0.9999999969298345448, 1612188254.4286439419, -0.68486032292603982174, 1612188254.428674221, 1.5677000004929873, 1612188254.428674221, -0.0061802294408270517026, 1612188254.428674221, -9.4197261999094797414e-11, , , , , , 
